stop_id,stop_name,stop_lat,stop_lon,zone_id,location_type,parent_station
1,松枝バス停,35.9486997,139.1536192,1,1,
1_1,松枝バス停,35.9486997,139.1536192,1_1,0,1
1_2,松枝バス停,35.9486997,139.1536192,1_2,0,1
2,長渕バス停,35.9598271,139.1595372,2,1,
2_1,長渕バス停,35.9598271,139.1595372,2_1,0,2
2_2,長渕バス停,35.9598271,139.1595372,2_2,0,2
3,中井橋バス停,35.9687203,139.1614127,3,1,
3_1,中井橋バス停,35.9687203,139.1614127,3_1,0,3
3_2,中井橋バス停,35.9687203,139.1614127,3_2,0,3
4,赤谷バス停,35.974428,139.1536179,4,1,
4_1,赤谷バス停,35.974428,139.1536179,4_1,0,4
4_2,赤谷バス停,35.974428,139.1536179,4_2,0,4
5,芦ヶ久保郵便局,35.9778955,139.1367135,5,1,
5_1,芦ヶ久保郵便局,35.9778955,139.1367135,5_1,0,5
5_2,芦ヶ久保郵便局,35.9778955,139.1367135,5_2,0,5
6,日向山公会堂,35.9854652,139.1353269,6,1,
6_1,日向山公会堂,35.9854652,139.1353269,6_1,0,6
6_2,日向山公会堂,35.9854652,139.1353269,6_2,0,6
7,活性化センター,35.9775474,139.1345607,7,1,
7_1,活性化センター,35.9775474,139.1345607,7_1,0,7
7_2,活性化センター,35.9775474,139.1345607,7_2,0,7
8,芦ヶ久保駅,35.9769561,139.1368949,8,1,
8_1,芦ヶ久保駅,35.9769561,139.1368949,8_1,0,8
8_2,芦ヶ久保駅,35.9769561,139.1368949,8_2,0,8
9,3区コミュニテイ広場,35.9759347,139.111288,9,1,
9_1,3区コミュニテイ広場,35.9759347,139.111288,9_1,0,9
9_2,3区コミュニテイ広場,35.9759347,139.111288,9_2,0,9
10,里宮前,35.9742052,139.1089074,10,1,
10_1,里宮前,35.9742052,139.1089074,10_1,0,10
10_2,里宮前,35.9742052,139.1089074,10_2,0,10
11,川連製作所,35.9713816,139.1084747,11,1,
11_1,川連製作所,35.9713816,139.1084747,11_1,0,11
11_2,川連製作所,35.9713816,139.1084747,11_2,0,11
12,横瀬石油,35.970257,139.1044629,12,1,
12_1,横瀬石油,35.970257,139.1044629,12_1,0,12
12_2,横瀬石油,35.970257,139.1044629,12_2,0,12
13,3区公会堂,35.9771815,139.1076599,13,1,
13_1,3区公会堂,35.9771815,139.1076599,13_1,0,13
13_2,3区公会堂,35.9771815,139.1076599,13_2,0,13
14,総合福祉センター,35.981475,139.1098168,14,1,
14_1,総合福祉センター,35.981475,139.1098168,14_1,0,14
14_2,総合福祉センター,35.981475,139.1098168,14_2,0,14
15,苅米公会堂,35.9834202,139.1100005,15,1,
15_1,苅米公会堂,35.9834202,139.1100005,15_1,0,15
15_2,苅米公会堂,35.9834202,139.1100005,15_2,0,15
16,寺坂棚田第1駐車場,35.9874477,139.1074749,16,1,
16_1,寺坂棚田第1駐車場,35.9874477,139.1074749,16_1,0,16
16_2,寺坂棚田第1駐車場,35.9874477,139.1074749,16_2,0,16
17,町民会館,35.9866443,139.1033096,17,1,
17_1,町民会館,35.9866443,139.1033096,17_1,0,17
17_2,町民会館,35.9866443,139.1033096,17_2,0,17
18,横瀬郵便局前,35.9863353,139.101796,18,1,
18_1,横瀬郵便局前,35.9863353,139.101796,18_1,0,18
18_2,横瀬郵便局前,35.9863353,139.101796,18_2,0,18
19,札所9番,35.9839143,139.1028449,19,1,
19_1,札所9番,35.9839143,139.1028449,19_1,0,19
19_2,札所9番,35.9839143,139.1028449,19_2,0,19
20,横瀬駅,35.9854267,139.0981103,20,1,
20_1,横瀬駅,35.9854267,139.0981103,20_1,0,20
20_2,横瀬駅,35.9854267,139.0981103,20_2,0,20
21,横瀬町役場,35.987452,139.0999118,21,1,
21_1,横瀬町役場,35.987452,139.0999118,21_1,0,21
21_2,横瀬町役場,35.987452,139.0999118,21_2,0,21
22,和田河原,35.992316,139.1029104,22,1,
22_1,和田河原,35.992316,139.1029104,22_1,0,22
22_2,和田河原,35.992316,139.1029104,22_2,0,22
23,ホルモンきくや,35.9928209,139.1053071,23,1,
23_1,ホルモンきくや,35.9928209,139.1053071,23_1,0,23
23_2,ホルモンきくや,35.9928209,139.1053071,23_2,0,23
24,田端商店,35.9947135,139.1053217,24,1,
24_1,田端商店,35.9947135,139.1053217,24_1,0,24
24_2,田端商店,35.9947135,139.1053217,24_2,0,24
25,荒舩医院・なでしこ,36.0045627,139.1095195,25,1,
25_1,荒舩医院・なでしこ,36.0045627,139.1095195,25_1,0,25
25_2,荒舩医院・なでしこ,36.0045627,139.1095195,25_2,0,25
26,ヤオヨシ,36.0052341,139.1085888,26,1,
26_1,ヤオヨシ,36.0052341,139.1085888,26_1,0,26
26_2,ヤオヨシ,36.0052341,139.1085888,26_2,0,26
27,語歌橋バス停,35.9995174,139.1037583,27,1,
27_1,語歌橋バス停,35.9995174,139.1037583,27_1,0,27
27_2,語歌橋バス停,35.9995174,139.1037583,27_2,0,27
28,15区集落センター,36.0063677,139.1047561,28,1,
28_1,15区集落センター,36.0063677,139.1047561,28_1,0,28
28_2,15区集落センター,36.0063677,139.1047561,28_2,0,28
29,16区集落センター,35.9984421,139.0992441,29,1,
29_1,16区集落センター,35.9984421,139.0992441,29_1,0,29
29_2,16区集落センター,35.9984421,139.0992441,29_2,0,29
30,松田医院,35.990827,139.0973853,30,1,
30_1,松田医院,35.990827,139.0973853,30_1,0,30
30_2,松田医院,35.990827,139.0973853,30_2,0,30
31,荻原医院,35.989911,139.0964621,31,1,
31_1,荻原医院,35.989911,139.0964621,31_1,0,31
31_2,荻原医院,35.989911,139.0964621,31_2,0,31
32,東林寺,35.9848195,139.0941968,32,1,
32_1,東林寺,35.9848195,139.0941968,32_1,0,32
32_2,東林寺,35.9848195,139.0941968,32_2,0,32
33,御製碑前,35.9745802,139.0909117,33,1,
33_1,御製碑前,35.9745802,139.0909117,33_1,0,33
33_2,御製碑前,35.9745802,139.0909117,33_2,0,33
34,姿見山浄水場,35.9858812,139.091439,34,1,
34_1,姿見山浄水場,35.9858812,139.091439,34_1,0,34
34_2,姿見山浄水場,35.9858812,139.091439,34_2,0,34
35,ウエルシア,35.991963,139.0945878,35,1,
35_1,ウエルシア,35.991963,139.0945878,35_1,0,35
35_2,ウエルシア,35.991963,139.0945878,35_2,0,35
36,いの整骨院,35.9924649,139.0938915,36,1,
36_1,いの整骨院,35.9924649,139.0938915,36_1,0,36
36_2,いの整骨院,35.9924649,139.0938915,36_2,0,36
37,ウニクス,35.9963193,139.088635,37,1,
37_1,ウニクス,35.9963193,139.088635,37_1,0,37
37_2,ウニクス,35.9963193,139.088635,37_2,0,37
38,秩父市立病院,36.0021829,139.0809659,38,1,
38_1,秩父市立病院,36.0021829,139.0809659,38_1,0,38
38_2,秩父市立病院,36.0021829,139.0809659,38_2,0,38
39,秩父駅,35.9986299,139.0856676,39,1,
39_1,秩父駅,35.9986299,139.0856676,39_1,0,39
39_2,秩父駅,35.9986299,139.0856676,39_2,0,39
